{
    "features": [
        {
            "type": "Feature",
            "properties": {
                "title": "Lincoln Park",
                "description": "A northside park that is home to the Lincoln Park Zoo"
            },
            "geometry": {
                "coordinates": [3.3084504, 6.5868768],
                "type": "Point"
            }
        },
        {
            "type": "Feature",
            "properties": {
                "title": "Burnham Park",
                "description": "A lakefront park on Chicago's south side"
            },
            "geometry": {
                "coordinates": [3.368157, 6.566383],
                "type": "Point"
            }
        },
        {
            "type": "Feature",
            "properties": {
                "title": "Millennium Park",
                "description": "A downtown park known for its art installations and unique architecture"
            },
            "geometry": {
                "coordinates": [3.375009, 6.568487],
                "type": "Point"
            }
        },
        {
            "type": "Feature",
            "properties": {
                "title": "Grant Park",
                "description": "A downtown park that is the site of many of Chicago's favorite festivals and events"
            },
            "geometry": {
                "coordinates": [3.363229, 6.560536],
                "type": "Point"
            }
        },
        {
            "type": "Feature",
            "properties": {
                "title": "Humboldt Park",
                "description": "A large park on Chicago's northwest side"
            },
            "geometry": {
                "coordinates": [3.372541, 6.562007],
                "type": "Point"
            }
        },
        {
            "type": "Feature",
            "properties": {
                "title": "Douglas Park",
                "description": "A large park near in Chicago's North Lawndale neighborhood"
            },
            "geometry": {
                "coordinates": [3.368193, 6.557405],
                "type": "Point"
            }
        },
        {
            "type": "Feature",
            "properties": {
                "title": "Calumet Park",
                "description": "A park on the Illinois-Indiana border featuring a historic fieldhouse"
            },
            "geometry": {
                "coordinates": [3.371383, 6.557217],
                "type": "Point"
            }
        },
        {
            "type": "Feature",
            "properties": {
                "title": "Jackson Park",
                "description": "A lakeside park that was the site of the 1893 World's Fair"
            },
            "geometry": {
                "coordinates": [3.365226, 6.551822],
                "type": "Point"
            }
        },
        {
            "type": "Feature",
            "properties": {
                "title": "Columbus Park",
                "description": "A large park in Chicago's Austin neighborhood"
            },
            "geometry": {
                "coordinates": [3.361918, 6.555892],
                "type": "Point"
            }
        }
    ],
    "type": "FeatureCollection"
}
